[
    {"city": "New York", "state": "New York", "country_or_region": "US", "latitude": 40.7128, "longitude": -74.006},
    {"city": "San Francisco", "state": "California", "country_or_region": "US", "latitude": 37.7749, "longitude": -122.4194},
    {"city": "London", "state": "England", "country_or_region": "GB", "latitude": 51.5074, "longitude": -0.1278},
    {"city": "Chicago", "state": "Illinois", "country_or_region": "US", "latitude": 41.8781, "longitude": -87.6298},
    {"city": "Seattle", "state": "Washington", "country_or_region": "US", "latitude": 47.6062, "longitude": -122.3321},
    {"city": "Toronto", "state": "Ontario", "country_or_region": "CA", "latitude": 43.6532, "longitude": -79.3832},
    {"city": "Berlin", "state": "Berlin", "country_or_region": "DE", "latitude": 52.52, "longitude": 13.405},
    {"city": "Sydney", "state": "New South Wales", "country_or_region": "AU", "latitude": -33.8688, "longitude": 151.2093}
]
